data = [
  { "title" : "Peirless Beach" , "location" : { "lat" : "26.871856" , "lng" : "-80.049845"}},
  { "title" : "Jetty's Waterfront Restaurant" , "location" : { "lat" : "26.946291" , "lng" : "-80.082824"}},
  { "title" : "Subculture Coffee, Climatis Street" , "location" : { "lat" : "26.713548" , "lng" : "-80.055889"}},
  { "title" : "Generation Church, Jupiter" , "location" : { "lat" : "26.930736" , "lng" : "-80.123895"}},
  { "title" : "Jupiter Inlet Lighthouse & Museum" , "location" : { "lat" : "26.9479905" , "lng" : "-80.0859873"}}
];
